<?xml version="1.0"?><kml xmlns="http://earth.google.com/kml/2.0"><Document><name>Continental Divide Trail Post Offices</name><description>Post Offices along the Continental Divide Trail. | Created with http://batchgeo.com</description><style id="0"><BalloonStyle><text><![CDATA[ <b>$[name]</b><br />$[address]<br />$[description]<br/><br/>$[geDirections] ]]></text></BalloonStyle></style><Placemark><name>East Glacier Park, MT</name><description>&lt;div&gt;&lt;span class=&quot;l&quot;&gt;phone:&lt;/span&gt;&amp;nbsp;406-226-5534&lt;/div&gt;&lt;p&gt;&lt;a href=&quot;http://tinyurl.com/bof7n85&quot;&gt;http://tinyurl.com/bof7n85&lt;/a&gt;&lt;/p&gt;</description><Point><coordinates>-113.21554481291,48.443770325752,0</coordinates></Point><address>15 BLACKFOOT AVE EAST GLACIER PARK, MT 59434-9700  </address><styleUrl>#0</styleUrl></Placemark><Placemark><name>Augusta, MT</name><description>&lt;div&gt;&lt;span class=&quot;l&quot;&gt;phone:&lt;/span&gt;&amp;nbsp;406-562-3370&lt;/div&gt;&lt;p&gt;&lt;a href=&quot;http://tinyurl.com/chm2jvm&quot;&gt;http://tinyurl.com/chm2jvm&lt;/a&gt;&lt;/p&gt;</description><Point><coordinates>-112.38864810662,47.494968001482,0</coordinates></Point><address>102 WALRATH ST AUGUSTA, MT 59410-9700  </address><styleUrl>#0</styleUrl></Placemark><Placemark><name>Lincoln, MT</name><description>&lt;div&gt;&lt;span class=&quot;l&quot;&gt;phone:&lt;/span&gt;&amp;nbsp;406-362-4523&lt;/div&gt;&lt;p&gt;&lt;a href=&quot;http://tinyurl.com/ck7h3w2&quot;&gt;http://tinyurl.com/ck7h3w2&lt;/a&gt;&lt;/p&gt;</description><Point><coordinates>-112.67516049682,46.955179797514,0</coordinates></Point><address>237 MAIN ST LINCOLN, MT 59639-9702  </address><styleUrl>#0</styleUrl></Placemark><Placemark><name>Helena, MT</name><description>&lt;div&gt;&lt;span class=&quot;l&quot;&gt;phone:&lt;/span&gt;&amp;nbsp;406-443-3304&lt;/div&gt;&lt;p&gt;&lt;a href=&quot;http://tinyurl.com/bh4h4x8&quot;&gt;http://tinyurl.com/bh4h4x8&lt;/a&gt;&lt;/p&gt;</description><Point><coordinates>-112.01410835124,46.607786210529,0</coordinates></Point><address>2300 N HARRIS ST HELENA, MT 59601-9998  </address><styleUrl>#0</styleUrl></Placemark><Placemark><name>Elliston, MT</name><description>&lt;div&gt;&lt;span class=&quot;l&quot;&gt;phone:&lt;/span&gt;&amp;nbsp;406-492-6644&lt;/div&gt;&lt;p&gt;&lt;a href=&quot;http://tinyurl.com/ajr9ab7&quot;&gt;http://tinyurl.com/ajr9ab7&lt;/a&gt;&lt;/p&gt;</description><Point><coordinates>-112.44499179058,46.567233696824,0</coordinates></Point><address>101 W FRONT ST ELLISTON, MT 59728-9700  </address><styleUrl>#0</styleUrl></Placemark><Placemark><name>Butte, MT</name><description>&lt;div&gt;&lt;span class=&quot;l&quot;&gt;phone:&lt;/span&gt;&amp;nbsp;406-494-2107&lt;/div&gt;&lt;p&gt;&lt;a href=&quot;http://tinyurl.com/cbdd6rb&quot;&gt;http://tinyurl.com/cbdd6rb&lt;/a&gt;&lt;/p&gt;</description><Point><coordinates>-112.52725252765,45.983366302057,0</coordinates></Point><address>701 DEWEY BLVD BUTTE, MT 59701-9998  </address><styleUrl>#0</styleUrl></Placemark><Placemark><name>Anaconda, MT</name><description>&lt;div&gt;&lt;span class=&quot;l&quot;&gt;phone:&lt;/span&gt;&amp;nbsp;406-563-2241&lt;/div&gt;&lt;p&gt;&lt;a href=&quot;http://tinyurl.com/bsqqgrn&quot;&gt;http://tinyurl.com/bsqqgrn&lt;/a&gt;&lt;/p&gt;</description><Point><coordinates>-112.95359733786,46.128703800465,0</coordinates></Point><address>218 MAIN ST ANACONDA, MT 59711-9998  </address><styleUrl>#0</styleUrl></Placemark><Placemark><name>Wisdom, MT</name><description>&lt;div&gt;&lt;span class=&quot;l&quot;&gt;phone:&lt;/span&gt;&amp;nbsp;406-689-3224&lt;/div&gt;&lt;p&gt;&lt;a href=&quot;http://tinyurl.com/b8xm866&quot;&gt;http://tinyurl.com/b8xm866&lt;/a&gt;&lt;/p&gt;</description><Point><coordinates>-113.45029823798,45.615836936329,0</coordinates></Point><address>200 MAIN ST WISDOM, MT 59761-9700  </address><styleUrl>#0</styleUrl></Placemark><Placemark><name>Sula, MT</name><description>&lt;div&gt;&lt;span class=&quot;l&quot;&gt;phone:&lt;/span&gt;&amp;nbsp;406-821-3852&lt;/div&gt;&lt;p&gt;&lt;a href=&quot;http://tinyurl.com/as5sptw&quot;&gt;http://tinyurl.com/as5sptw&lt;/a&gt;&lt;/p&gt;</description><Point><coordinates>-113.95670737802,45.850074809735,0</coordinates></Point><address>502 E FORK RD SULA, MT 59871-9712  </address><styleUrl>#0</styleUrl></Placemark><Placemark><name>Darby, MT</name><description>&lt;div&gt;&lt;span class=&quot;l&quot;&gt;phone:&lt;/span&gt;&amp;nbsp;406-821-3441&lt;/div&gt;&lt;p&gt;&lt;a href=&quot;http://tinyurl.com/atrhbuy&quot;&gt;http://tinyurl.com/atrhbuy&lt;/a&gt;&lt;/p&gt;</description><Point><coordinates>-114.17802847773,46.023337754949,0</coordinates></Point><address>407 N MAIN ST DARBY, MT 59829-9560  </address><styleUrl>#0</styleUrl></Placemark><Placemark><name>Salmon, ID</name><description>&lt;div&gt;&lt;span class=&quot;l&quot;&gt;phone:&lt;/span&gt;&amp;nbsp;208-756-2410&lt;/div&gt;&lt;p&gt;&lt;a href=&quot;http://tinyurl.com/b9bky9x&quot;&gt;http://tinyurl.com/b9bky9x&lt;/a&gt;&lt;/p&gt;</description><Point><coordinates>-113.89233081603,45.176068384061,0</coordinates></Point><address>600 SHOUP ST SALMON, ID 83467-9998  </address><styleUrl>#0</styleUrl></Placemark><Placemark><name>Leadore, ID</name><description>&lt;div&gt;&lt;span class=&quot;l&quot;&gt;phone:&lt;/span&gt;&amp;nbsp;208-768-2202&lt;/div&gt;&lt;p&gt;&lt;a href=&quot;http://tinyurl.com/ald5nba&quot;&gt;http://tinyurl.com/ald5nba&lt;/a&gt;&lt;/p&gt;</description><Point><coordinates>-113.35820763986,44.680820033107,0</coordinates></Point><address>115 S RAILROAD ST LEADORE, ID 83464-9998  </address><styleUrl>#0</styleUrl></Placemark><Placemark><name>Lima, MT</name><description>&lt;div&gt;&lt;span class=&quot;l&quot;&gt;phone:&lt;/span&gt;&amp;nbsp;406-276-3515&lt;/div&gt;&lt;p&gt;&lt;a href=&quot;http://tinyurl.com/aog9pva&quot;&gt;http://tinyurl.com/aog9pva&lt;/a&gt;&lt;/p&gt;</description><Point><coordinates>-112.59079347131,44.635385894769,0</coordinates></Point><address>700 PEAT ST LIMA, MT 59739-9719  </address><styleUrl>#0</styleUrl></Placemark><Placemark><name>Macks Inn, ID</name><description>&lt;div&gt;&lt;span class=&quot;l&quot;&gt;phone:&lt;/span&gt;&amp;nbsp;208-558-7070&lt;/div&gt;&lt;p&gt;&lt;a href=&quot;http://tinyurl.com/aotzf4p&quot;&gt;http://tinyurl.com/aotzf4p&lt;/a&gt;&lt;/p&gt;</description><Point><coordinates>-111.3362366424,44.498802063422,0</coordinates></Point><address>4110 S BIG SPRINGS RD MACKS INN, ID 83433-9998  </address><styleUrl>#0</styleUrl></Placemark><Placemark><name>West Yellowstone, MT</name><description>&lt;div&gt;&lt;span class=&quot;l&quot;&gt;phone:&lt;/span&gt;&amp;nbsp;406-646-7704&lt;/div&gt;&lt;p&gt;&lt;a href=&quot;http://tinyurl.com/afhowde&quot;&gt;http://tinyurl.com/afhowde&lt;/a&gt;&lt;/p&gt;</description><Point><coordinates>-111.10261679146,44.656366822635,0</coordinates></Point><address>209 GRIZZLY AVE WEST YELLOWSTONE, MT 59758-9709  </address><styleUrl>#0</styleUrl></Placemark><Placemark><name>Old Faithful Village, YNP</name><description>&lt;div&gt;&lt;span class=&quot;l&quot;&gt;phone:&lt;/span&gt;&amp;nbsp;307-545-7252&lt;/div&gt;&lt;p&gt;&lt;a href=&quot;http://tinyurl.com/cgz3jz7&quot;&gt;http://tinyurl.com/cgz3jz7&lt;/a&gt;&lt;/p&gt;</description><Point><coordinates>-110.82920032018,44.458639895823,0</coordinates></Point><address>1000 OLD FAITHFUL YELLOWSTONE NATIONAL PARK, WY 82190-9900  </address><styleUrl>#0</styleUrl></Placemark><Placemark><name>Dubois, WY</name><description>&lt;div&gt;&lt;span class=&quot;l&quot;&gt;phone:&lt;/span&gt;&amp;nbsp;307-455-2735&lt;/div&gt;&lt;p&gt;&lt;a href=&quot;http://tinyurl.com/dykymfl&quot;&gt;http://tinyurl.com/dykymfl&lt;/a&gt;&lt;/p&gt;</description><Point><coordinates>-109.64292683116,43.537489308341,0</coordinates></Point><address>804 RAMSHORN ST DUBOIS, WY 82513-9746  </address><styleUrl>#0</styleUrl></Placemark><Placemark><name>Pinedale, WY</name><description>&lt;div&gt;&lt;span class=&quot;l&quot;&gt;phone:&lt;/span&gt;&amp;nbsp;307-367-2650&lt;/div&gt;&lt;p&gt;&lt;a href=&quot;http://tinyurl.com/aypnwmc&quot;&gt;http://tinyurl.com/aypnwmc&lt;/a&gt;&lt;/p&gt;</description><Point><coordinates>-109.86560112667,42.866908769548,0</coordinates></Point><address>413 PINE ST PINEDALE, WY 82941-9050  </address><styleUrl>#0</styleUrl></Placemark><Placemark><name>South Pass City, WY</name><description>&lt;p&gt;&lt;a href=&quot;http://tinyurl.com/a9fg452&quot;&gt;http://tinyurl.com/a9fg452&lt;/a&gt;&lt;/p&gt;</description><Point><coordinates>-108.80255340098,42.468773307509,0</coordinates></Point><address>125 MAIN ST S PASS SOUTH PASS CITY, WY 82520-8703  </address><styleUrl>#0</styleUrl></Placemark><Placemark><name>Lander, WY</name><description>&lt;div&gt;&lt;span class=&quot;l&quot;&gt;phone:&lt;/span&gt;&amp;nbsp;307-332-2126&lt;/div&gt;&lt;p&gt;&lt;a href=&quot;http://tinyurl.com/bzhwqc9&quot;&gt;http://tinyurl.com/bzhwqc9&lt;/a&gt;&lt;/p&gt;</description><Point><coordinates>-108.72266741296,42.831344628142,0</coordinates></Point><address>230 GRANDVIEW DR LANDER, WY 82520-9998  </address><styleUrl>#0</styleUrl></Placemark><Placemark><name>Rawlins, WY</name><description>&lt;div&gt;&lt;span class=&quot;l&quot;&gt;phone:&lt;/span&gt;&amp;nbsp;307-324-3521&lt;/div&gt;&lt;p&gt;&lt;a href=&quot;http://tinyurl.com/b8ru9ua&quot;&gt;http://tinyurl.com/b8ru9ua&lt;/a&gt;&lt;/p&gt;</description><Point><coordinates>-107.23990724199,41.786964608228,0</coordinates></Point><address>106 5TH ST RAWLINS, WY 82301-9998  </address><styleUrl>#0</styleUrl></Placemark><Placemark><name>Encampment, WY</name><description>&lt;div&gt;&lt;span class=&quot;l&quot;&gt;phone:&lt;/span&gt;&amp;nbsp;307-327-5747&lt;/div&gt;&lt;p&gt;&lt;a href=&quot;http://tinyurl.com/c6tmqge&quot;&gt;http://tinyurl.com/c6tmqge&lt;/a&gt;&lt;/p&gt;</description><Point><coordinates>-106.79113894094,41.207383284149,0</coordinates></Point><address>622 MCCAFFREY AVE ENCAMPMENT, WY 82325-9904  </address><styleUrl>#0</styleUrl></Placemark><Placemark><name>Steamboat Springs, CO</name><description>&lt;div&gt;&lt;span class=&quot;l&quot;&gt;phone:&lt;/span&gt;&amp;nbsp;970-870-3001&lt;/div&gt;&lt;p&gt;&lt;a href=&quot;http://tinyurl.com/dyrxf5x&quot;&gt;http://tinyurl.com/dyrxf5x&lt;/a&gt;&lt;/p&gt;</description><Point><coordinates>-106.82760308667,40.481752062135,0</coordinates></Point><address>200 LINCOLN AVE STEAMBOAT SPRINGS, CO 80487-9998  </address><styleUrl>#0</styleUrl></Placemark><Placemark><name>Grand Lake, CO</name><description>&lt;div&gt;&lt;span class=&quot;l&quot;&gt;phone:&lt;/span&gt;&amp;nbsp;970-627-3340&lt;/div&gt;&lt;p&gt;&lt;a href=&quot;http://tinyurl.com/d9mh8bd&quot;&gt;http://tinyurl.com/d9mh8bd&lt;/a&gt;&lt;/p&gt;</description><Point><coordinates>-105.83096581947,40.25162255728,0</coordinates></Point><address>520 CENTER DR GRAND LAKE, CO 80447-9997  </address><styleUrl>#0</styleUrl></Placemark><Placemark><name>Winter Park, CO</name><description>&lt;div&gt;&lt;span class=&quot;l&quot;&gt;phone:&lt;/span&gt;&amp;nbsp;970-726-6775&lt;/div&gt;&lt;p&gt;&lt;a href=&quot;http://tinyurl.com/ajottjr&quot;&gt;http://tinyurl.com/ajottjr&lt;/a&gt;&lt;/p&gt;</description><Point><coordinates>-105.78749551359,39.923790681248,0</coordinates></Point><address>78490 US HIGHWAY 40 WINTER PARK, CO 80482-9997  </address><styleUrl>#0</styleUrl></Placemark><Placemark><name>Silverthorne, CO</name><description>&lt;div&gt;&lt;span class=&quot;l&quot;&gt;phone:&lt;/span&gt;&amp;nbsp;970-468-2050&lt;/div&gt;&lt;p&gt;&lt;a href=&quot;http://tinyurl.com/cw25d8l&quot;&gt;http://tinyurl.com/cw25d8l&lt;/a&gt;&lt;/p&gt;</description><Point><coordinates>-106.07789342236,39.633420592723,0</coordinates></Point><address>518 BRIAN AVE SILVERTHORNE, CO 80497-9990  </address><styleUrl>#0</styleUrl></Placemark><Placemark><name>Leadville, CO</name><description>&lt;div&gt;&lt;span class=&quot;l&quot;&gt;phone:&lt;/span&gt;&amp;nbsp;719-486-9397&lt;/div&gt;&lt;p&gt;&lt;a href=&quot;http://tinyurl.com/algcfpq&quot;&gt;http://tinyurl.com/algcfpq&lt;/a&gt;&lt;/p&gt;</description><Point><coordinates>-106.29222883358,39.247715226101,0</coordinates></Point><address>130 W 5TH ST LEADVILLE, CO 80461-9998  </address><styleUrl>#0</styleUrl></Placemark><Placemark><name>Twin Lakes, CO</name><description>&lt;div&gt;&lt;span class=&quot;l&quot;&gt;phone:&lt;/span&gt;&amp;nbsp;719-486-2196&lt;/div&gt;&lt;p&gt;&lt;a href=&quot;http://tinyurl.com/bwl9qqw&quot;&gt;http://tinyurl.com/bwl9qqw&lt;/a&gt;&lt;/p&gt;</description><Point><coordinates>-106.38313277705,39.081885644945,0</coordinates></Point><address>6451 E STATE HIGHWAY 82 TWIN LAKES, CO 81251-9724  </address><styleUrl>#0</styleUrl></Placemark><Placemark><name>Buena Vista, CO</name><description>&lt;div&gt;&lt;span class=&quot;l&quot;&gt;phone:&lt;/span&gt;&amp;nbsp;719-395-2446&lt;/div&gt;&lt;p&gt;&lt;a href=&quot;http://tinyurl.com/avu3g8r&quot;&gt;http://tinyurl.com/avu3g8r&lt;/a&gt;&lt;/p&gt;</description><Point><coordinates>-106.13649506211,38.845771692014,0</coordinates></Point><address>110 BROOKDALE AVE BUENA VISTA, CO 81211-9616  </address><styleUrl>#0</styleUrl></Placemark><Placemark><name>Salida, CO</name><description>&lt;div&gt;&lt;span class=&quot;l&quot;&gt;phone:&lt;/span&gt;&amp;nbsp;719-539-2548&lt;/div&gt;&lt;p&gt;&lt;a href=&quot;http://tinyurl.com/bdsyan7&quot;&gt;http://tinyurl.com/bdsyan7&lt;/a&gt;&lt;/p&gt;</description><Point><coordinates>-105.9918648446,38.533177014235,0</coordinates></Point><address>310 D ST SALIDA, CO 81201-2843  </address><styleUrl>#0</styleUrl></Placemark><Placemark><name>Creede, CO</name><description>&lt;div&gt;&lt;span class=&quot;l&quot;&gt;phone:&lt;/span&gt;&amp;nbsp;719-658-2615&lt;/div&gt;&lt;p&gt;&lt;a href=&quot;http://tinyurl.com/akhpbrf&quot;&gt;http://tinyurl.com/akhpbrf&lt;/a&gt;&lt;/p&gt;</description><Point><coordinates>-106.92674096318,37.852576815507,0</coordinates></Point><address>10 S MAIN ST CREEDE, CO 81130-9990  </address><styleUrl>#0</styleUrl></Placemark><Placemark><name>Lake City, CO</name><description>&lt;div&gt;&lt;span class=&quot;l&quot;&gt;phone:&lt;/span&gt;&amp;nbsp;970-944-2560&lt;/div&gt;&lt;p&gt;&lt;a href=&quot;http://tinyurl.com/bvxqhjl&quot;&gt;http://tinyurl.com/bvxqhjl&lt;/a&gt;&lt;/p&gt;</description><Point><coordinates>-107.31295349044,38.034628500281,0</coordinates></Point><address>803 GUNNISON AVE LAKE CITY, CO 81235-9707  </address><styleUrl>#0</styleUrl></Placemark><Placemark><name>Silverton, CO</name><description>&lt;div&gt;&lt;span class=&quot;l&quot;&gt;phone:&lt;/span&gt;&amp;nbsp;970-387-5402&lt;/div&gt;&lt;p&gt;&lt;a href=&quot;http://tinyurl.com/d37lkys&quot;&gt;http://tinyurl.com/d37lkys&lt;/a&gt;&lt;/p&gt;</description><Point><coordinates>-107.66531060127,37.8121826047,0</coordinates></Point><address>138 W 12TH ST SILVERTON, CO 81433-9997  </address><styleUrl>#0</styleUrl></Placemark><Placemark><name>South Fork, CO</name><description>&lt;div&gt;&lt;span class=&quot;l&quot;&gt;phone:&lt;/span&gt;&amp;nbsp;719-873-5611&lt;/div&gt;&lt;p&gt;&lt;a href=&quot;http://tinyurl.com/czw7shb&quot;&gt;http://tinyurl.com/czw7shb&lt;/a&gt;&lt;/p&gt;</description><Point><coordinates>-106.64458939516,37.666375314018,0</coordinates></Point><address>130 W FRONTAGE RD SOUTH FORK, CO 81154-9990  </address><styleUrl>#0</styleUrl></Placemark><Placemark><name>Pagosa Springs, CO</name><description>&lt;div&gt;&lt;span class=&quot;l&quot;&gt;phone:&lt;/span&gt;&amp;nbsp;970-264-5440&lt;/div&gt;&lt;p&gt;&lt;a href=&quot;http://tinyurl.com/agby3wk&quot;&gt;http://tinyurl.com/agby3wk&lt;/a&gt;&lt;/p&gt;</description><Point><coordinates>-107.00966304791,37.263961277177,0</coordinates></Point><address>250 HOT SPRINGS BLVD PAGOSA SPRINGS, CO 81147-9821  </address><styleUrl>#0</styleUrl></Placemark><Placemark><name>Chama, NM</name><description>&lt;div&gt;&lt;span class=&quot;l&quot;&gt;phone:&lt;/span&gt;&amp;nbsp;575-756-2240&lt;/div&gt;&lt;p&gt;&lt;a href=&quot;http://tinyurl.com/bdv76yo&quot;&gt;http://tinyurl.com/bdv76yo&lt;/a&gt;&lt;/p&gt;</description><Point><coordinates>-106.58167603067,36.903526455203,0</coordinates></Point><address>199 5TH ST W CHAMA, NM 87520-9998  </address><styleUrl>#0</styleUrl></Placemark><Placemark><name>Abiquiu, NM</name><description>&lt;div&gt;&lt;span class=&quot;l&quot;&gt;phone:&lt;/span&gt;&amp;nbsp;505-685-4460&lt;/div&gt;&lt;p&gt;&lt;a href=&quot;http://tinyurl.com/atxmwhf&quot;&gt;http://tinyurl.com/atxmwhf&lt;/a&gt;&lt;/p&gt;</description><Point><coordinates>-106.31858271341,36.207216106949,0</coordinates></Point><address>4 COUNTY ROAD 165 ABIQUIU, NM 87510-9998  </address><styleUrl>#0</styleUrl></Placemark><Placemark><name>Cuba, NM</name><description>&lt;div&gt;&lt;span class=&quot;l&quot;&gt;phone:&lt;/span&gt;&amp;nbsp;575-289-3426&lt;/div&gt;&lt;p&gt;&lt;a href=&quot;http://tinyurl.com/bfggh2g&quot;&gt;http://tinyurl.com/bfggh2g&lt;/a&gt;&lt;/p&gt;</description><Point><coordinates>-106.95954320222,36.020327052758,0</coordinates></Point><address>6358 MAIN ST CUBA, NM 87013-9998  </address><styleUrl>#0</styleUrl></Placemark><Placemark><name>Grants, NM</name><description>&lt;div&gt;&lt;span class=&quot;l&quot;&gt;phone:&lt;/span&gt;&amp;nbsp;505-287-3143&lt;/div&gt;&lt;p&gt;&lt;a href=&quot;http://tinyurl.com/bb39x2p&quot;&gt;http://tinyurl.com/bb39x2p&lt;/a&gt;&lt;/p&gt;</description><Point><coordinates>-107.85717444665,35.154237454294,0</coordinates></Point><address>816 W SANTA FE AVE GRANTS, NM 87020-7000  </address><styleUrl>#0</styleUrl></Placemark><Placemark><name>Pie Town, NM</name><description>&lt;div&gt;&lt;span class=&quot;l&quot;&gt;phone:&lt;/span&gt;&amp;nbsp;575-772-2638&lt;/div&gt;&lt;p&gt;&lt;a href=&quot;http://tinyurl.com/ajdutss&quot;&gt;http://tinyurl.com/ajdutss&lt;/a&gt;&lt;/p&gt;</description><Point><coordinates>-108.13948560968,34.300384844622,0</coordinates></Point><address>17 FRONTAGE RD PIE TOWN, NM 87827-9998  </address><styleUrl>#0</styleUrl></Placemark><Placemark><name>Quemado, NM</name><description>&lt;div&gt;&lt;span class=&quot;l&quot;&gt;phone:&lt;/span&gt;&amp;nbsp;575-773-4696&lt;/div&gt;&lt;p&gt;&lt;a href=&quot;http://tinyurl.com/bfthtz6&quot;&gt;http://tinyurl.com/bfthtz6&lt;/a&gt;&lt;/p&gt;</description><Point><coordinates>-108.4908953195,34.341710167201,0</coordinates></Point><address>3476 W HIGHWAY 60 QUEMADO, NM 87829-9998  </address><styleUrl>#0</styleUrl></Placemark><Placemark><name>Reserve, NM</name><description>&lt;div&gt;&lt;span class=&quot;l&quot;&gt;phone:&lt;/span&gt;&amp;nbsp;575-533-6333&lt;/div&gt;&lt;p&gt;&lt;a href=&quot;http://tinyurl.com/bd5bnr3&quot;&gt;http://tinyurl.com/bd5bnr3&lt;/a&gt;&lt;/p&gt;</description><Point><coordinates>-108.90369767342,33.511155112399,0</coordinates></Point><address>10 BALKE ST RESERVE, NM 87830-9997  </address><styleUrl>#0</styleUrl></Placemark><Placemark><name>Winston, NM</name><description>&lt;div&gt;&lt;span class=&quot;l&quot;&gt;phone:&lt;/span&gt;&amp;nbsp;575-743-0157&lt;/div&gt;&lt;p&gt;&lt;a href=&quot;http://tinyurl.com/c3edf37&quot;&gt;http://tinyurl.com/c3edf37&lt;/a&gt;&lt;/p&gt;</description><Point><coordinates>-107.6470776016,33.345698815105,0</coordinates></Point><address>451 GRAFTON RD WINSTON NM 87943-9803  </address><styleUrl>#0</styleUrl></Placemark><Placemark><name>Silver  City, NM</name><description>&lt;div&gt;&lt;span class=&quot;l&quot;&gt;phone:&lt;/span&gt;&amp;nbsp;575-538-2831&lt;/div&gt;&lt;p&gt;&lt;a href=&quot;http://tinyurl.com/c3jjy43&quot;&gt;http://tinyurl.com/c3jjy43&lt;/a&gt;&lt;/p&gt;</description><Point><coordinates>-108.27475686807,32.771629350374,0</coordinates></Point><address>500 N HUDSON ST SILVER CITY, NM 88061-9998  </address><styleUrl>#0</styleUrl></Placemark><Placemark><name>Lordsburg, NM</name><description>&lt;div&gt;&lt;span class=&quot;l&quot;&gt;phone:&lt;/span&gt;&amp;nbsp;575-542-9601&lt;/div&gt;&lt;p&gt;&lt;a href=&quot;http://tinyurl.com/c8do3fz&quot;&gt;http://tinyurl.com/c8do3fz&lt;/a&gt;&lt;/p&gt;</description><Point><coordinates>-108.70858284187,32.347529367184,0</coordinates></Point><address>401 SHAKESPEARE ST LORDSBURG, NM 88045-9998  </address><styleUrl>#0</styleUrl></Placemark><Placemark><name>Mimbres, NM</name><description>&lt;div&gt;&lt;span class=&quot;l&quot;&gt;phone:&lt;/span&gt;&amp;nbsp;575-536-9810&lt;/div&gt;&lt;p&gt;&lt;a href=&quot;http://tinyurl.com/blvqoqz&quot;&gt;http://tinyurl.com/blvqoqz&lt;/a&gt;&lt;/p&gt;</description><Point><coordinates>-107.97637510845,32.850838036965,0</coordinates></Point><address>3084 HIGHWAY 35 N MIMBRES, NM 88049-9800  </address><styleUrl>#0</styleUrl></Placemark><Placemark><name>Deming, NM</name><description>&lt;div&gt;&lt;span class=&quot;l&quot;&gt;phone:&lt;/span&gt;&amp;nbsp;575-546-9461&lt;/div&gt;&lt;p&gt;&lt;a href=&quot;http://tinyurl.com/abprfqb&quot;&gt;http://tinyurl.com/abprfqb&lt;/a&gt;&lt;/p&gt;</description><Point><coordinates>-107.76037708437,32.267560781794,0</coordinates></Point><address>201 W SPRUCE ST DEMING, NM 88030-9998  </address><styleUrl>#0</styleUrl></Placemark><Placemark><name>Columbus, NM</name><description>&lt;div&gt;&lt;span class=&quot;l&quot;&gt;phone:&lt;/span&gt;&amp;nbsp;575-531-2680&lt;/div&gt;&lt;p&gt;&lt;a href=&quot;http://tinyurl.com/agp9kdw&quot;&gt;http://tinyurl.com/agp9kdw&lt;/a&gt;&lt;/p&gt;</description><Point><coordinates>-107.63875976205,31.832688494362,0</coordinates></Point><address>201 S MAIN ST COLUMBUS, NM 88029-9800  </address><styleUrl>#0</styleUrl></Placemark></Document></kml>